[
  {
    "fullName": "Administrador Default",
    "email": "admin123@tiresis.com",
    "password": "tiresis12345",
    "companyName": "Tiresis Security",
    "location": "Oficina Central CDMX",
    "lat": 20.933239848025114,
    "lng": -89.5492059836516,
    "zone": [
      [
        20.941020553102067,
        -89.6134400367737
      ],
      [
        20.938396806659085,
        -89.61336493492126
      ],
      [
        20.938366763494656,
        -89.61712002754211
      ],
      [
        20.939648599819105,
        -89.61798906326295
      ],
      [
        20.941381064287736,
        -89.61469531059265
      ],
      [
        20.94065002681221,
        -89.61424469947816
      ]
    ]
  },
  {
    "fullName": "Diego Alberto Solis Baas",
    "email": "aldinalv62@gmail.com",
    "password": "Diego123",
    "location": "calle 17 x 10 y 12 Kanasín, Mérida, Yucatán, México",
    "lat": 20.93963690133021,
    "lng": -89.61698055267335
  },
  {
    "fullName": "Briana ",
    "email": "jehielixool@gmail.com",
    "password": "briana14.@",
    "companyName": "CASA",
    "location": "Unidad Morelos, 97190 Mérida, Yuc., Mérida, Yucatán, Mexico",
    "lat": 20.938593782797312,
    "lng": -89.61652095948189,
    "zone": [
      [
        20.93832684768336,
        -89.61723804473878
      ],
      [
        20.93834687789451,
        -89.6133542060852
      ],
      [
        20.94116109592599,
        -89.61339712142946
      ],
      [
        20.940840618249574,
        -89.6142339706421
      ],
      [
        20.941481572916416,
        -89.61473822593689
      ],
      [
        20.94114106609132,
        -89.61533904075624
      ],
      [
        20.94064031935346,
        -89.61511373519897
      ],
      [
        20.940359900448733,
        -89.61574673652649
      ],
      [
        20.940830603311117,
        -89.61607933044434
      ],
      [
        20.939678880922205,
        -89.61805343627931
      ]
    ]
  },
  {
    "fullName": "Emilio Huchim",
    "email": "emiliopena777@gmail.com",
    "password": "12345678",
    "companyName": "Residencial Torremolinos",
    "lat": 20.9152278,
    "lng": -89.5425702,
    "location": "Kanasín, Yucatán, 97370, México"
  },
  {
    "fullName": "chob",
    "email": "chobyxd2608@gmail.com",
    "password": "CHOB1234",
    "companyName": "choby´s security",
    "lat": 20.938735252900006,
    "lng": -89.6158218383789,
    "location": "Mérida, Yucatán, México"
  }
]